{
  "id": 211249,
  "city": "Göteborg",
  "county": "Västra Götalands län",
  "location": {
    "lat": 57.709072,
    "lon": 11.941643
  },
  "uri": "/lagenhet/211249-1rum-göteborg-västra-götalands-län-lindholmshamnen-5",
  "title": "Lindholmshamnen 5",
  "rent": 7874,
  "rooms": 1.0,
  "area": 14.0,
  "date_access": null,
  "references": {
    "estate": 7670,
    "apartment": 129028,
    "object_ad": 211249,
    "company": 200,
    "office": 1592,
    "project": null
  }
}
{
  "id": 211245,
  "city": "Göteborg",
  "county": "Västra Götalands län",
  "location": {
    "lat": 57.709072,
    "lon": 11.941643
  },
  "uri": "/lagenhet/211245-1rum-göteborg-västra-götalands-län-lindholmshamnen-5",
  "title": "Lindholmshamnen 5",
  "rent": 7874,
  "rooms": 1.0,
  "area": 14.0,
  "date_access": null,
  "references": {
    "estate": 7670,
    "apartment": 129021,
    "object_ad": 211245,
    "company": 200,
    "office": 1592,
    "project": null
  }
}
{
  "id": 211246,
  "city": "Göteborg",
  "county": "Västra Götalands län",
  "location": {
    "lat": 57.709072,
    "lon": 11.941643
  },
  "uri": "/lagenhet/211246-1rum-göteborg-västra-götalands-län-lindholmshamnen-5",
  "title": "Lindholmshamnen 5",
  "rent": 8842,
  "rooms": 1.0,
  "area": 22.0,
  "date_access": null,
  "references": {
    "estate": 7670,
    "apartment": 129022,
    "object_ad": 211246,
    "company": 200,
    "office": 1592,
    "project": null
  }
}
{
  "id": 211247,
  "city": "Göteborg",
  "county": "Västra Götalands län",
  "location": {
    "lat": 57.709072,
    "lon": 11.941643
  },
  "uri": "/lagenhet/211247-1rum-göteborg-västra-götalands-län-lindholmshamnen-5",
  "title": "Lindholmshamnen 5",
  "rent": 7993,
  "rooms": 1.0,
  "area": 15.0,
  "date_access": null,
  "references": {
    "estate": 7670,
    "apartment": 129023,
    "object_ad": 211247,
    "company": 200,
    "office": 1592,
    "project": null
  }
}
{
  "id": 211248,
  "city": "Göteborg",
  "county": "Västra Götalands län",
  "location": {
    "lat": 57.709072,
    "lon": 11.941643
  },
  "uri": "/lagenhet/211248-1rum-göteborg-västra-götalands-län-lindholmshamnen-5",
  "title": "Lindholmshamnen 5",
  "rent": 7874,
  "rooms": 1.0,
  "area": 14.0,
  "date_access": null,
  "references": {
    "estate": 7670,
    "apartment": 129024,
    "object_ad": 211248,
    "company": 200,
    "office": 1592,
    "project": null
  }
}
{
  "id": 231272,
  "city": "Göteborg",
  "county": "Västra Götalands län",
  "location": {
    "lat": 57.70978,
    "lon": 11.93912
  },
  "uri": "/lagenhet/231272-1rum-göteborg-västra-götalands-län-lodjursstråket-1",
  "title": "Lodjursstråket 1",
  "rent": 10506,
  "rooms": 1.0,
  "area": 31.0,
  "date_access": "2026-05-01",
  "references": {
    "estate": 12977,
    "apartment": 253055,
    "object_ad": 231272,
    "company": 3,
    "office": 66,
    "project": null
  }
}
{
  "id": 215520,
  "city": "Göteborg",
  "county": "Västra Götalands län",
  "location": {
    "lat": 57.709164,
    "lon": 11.941537
  },
  "uri": "/lagenhet/215520-1rum-göteborg-västra-götalands-län-lindholmshamnen-9",
  "title": "Lindholmshamnen 9",
  "rent": 8535,
  "rooms": 1.0,
  "area": 32.0,
  "date_access": "2026-02-01",
  "references": {
    "estate": 7670,
    "apartment": 129035,
    "object_ad": 215520,
    "company": 200,
    "office": 1592,
    "project": null
  }
}
{
  "id": 231251,
  "city": "Göteborg",
  "county": "Västra Götalands län",
  "location": {
    "lat": 57.70978,
    "lon": 11.93912
  },
  "uri": "/lagenhet/231251-2rum-göteborg-västra-götalands-län-lodjursstråket-1",
  "title": "Lodjursstråket 1",
  "rent": 14058,
  "rooms": 2.0,
  "area": 50.0,
  "date_access": "2026-04-01",
  "references": {
    "estate": 10761,
    "apartment": 276012,
    "object_ad": 231251,
    "company": 3,
    "office": 66,
    "project": null
  }
}
{
  "id": 229816,
  "city": "Göteborg",
  "county": "Västra Götalands län",
  "location": {
    "lat": 57.70978,
    "lon": 11.93912
  },
  "uri": "/lagenhet/229816-3rum-göteborg-västra-götalands-län-lodjursstråket-1",
  "title": "Lodjursstråket 1",
  "rent": 21165,
  "rooms": 3.0,
  "area": 93.0,
  "date_access": "2026-04-01",
  "references": {
    "estate": 10761,
    "apartment": 257513,
    "object_ad": 229816,
    "company": 3,
    "office": 66,
    "project": null
  }
}
{
  "id": 223285,
  "city": "Göteborg",
  "county": "Västra Götalands län",
  "location": {
    "lat": 57.709164,
    "lon": 11.941537
  },
  "uri": "/lagenhet/223285-1rum-göteborg-västra-götalands-län-lindholmshamnen-9",
  "title": "Lindholmshamnen 9",
  "rent": 8812,
  "rooms": 1.0,
  "area": 35.0,
  "date_access": "2026-03-01",
  "references": {
    "estate": 7670,
    "apartment": 129055,
    "object_ad": 223285,
    "company": 200,
    "office": 1592,
    "project": null
  }
}
{
  "id": 220788,
  "city": "Göteborg",
  "county": "Västra Götalands län",
  "location": {
    "lat": 57.6688325,
    "lon": 11.9337058
  },
  "uri": "/lagenhet/220788-1rum-göteborg-västra-götalands-län-lilla-tunnlandsgatan-5",
  "title": "Lilla Tunnlandsgatan 5",
  "rent": 7131,
  "rooms": 1.0,
  "area": 35.0,
  "date_access": "2026-03-01",
  "references": {
    "estate": 949,
    "apartment": 12061,
    "object_ad": 220788,
    "company": 148,
    "office": 170,
    "project": null
  }
}
{
  "id": 220881,
  "city": "Göteborg",
  "county": "Västra Götalands län",
  "location": {
    "lat": 57.668441,
    "lon": 11.9337991
  },
  "uri": "/lagenhet/220881-2rum-göteborg-västra-götalands-län-lilla-tunnlandsgatan-3",
  "title": "Lilla Tunnlandsgatan 3",
  "rent": 9196,
  "rooms": 2.0,
  "area": 54.0,
  "date_access": "2026-03-01",
  "references": {
    "estate": 949,
    "apartment": 268394,
    "object_ad": 220881,
    "company": 148,
    "office": 170,
    "project": null
  }
}
{
  "id": 228738,
  "city": "Göteborg",
  "county": "Västra Götalands län",
  "location": {
    "lat": 57.69917,
    "lon": 11.94512
  },
  "uri": "/lagenhet/228738-2rum-göteborg-västra-götalands-län-kryssdäcket-1",
  "title": "Kryssdäcket 1",
  "rent": 7902,
  "rooms": 2.0,
  "area": 62.0,
  "date_access": "2026-03-01",
  "references": {
    "estate": 632,
    "apartment": 274405,
    "object_ad": 228738,
    "company": 3,
    "office": 67,
    "project": null
  }
}
{
  "id": 228895,
  "city": "GÖTEBORG",
  "county": "Västra Götalands län",
  "location": {
    "lat": 57.69941,
    "lon": 11.96864
  },
  "uri": "/lagenhet/228895-1rum-göteborg-västra-götalands-län-vasaplatsen-5c",
  "title": "Vasaplatsen 5C",
  "rent": 7623,
  "rooms": 1.0,
  "area": 30.0,
  "date_access": "2026-03-01",
  "references": {
    "estate": 2197,
    "apartment": 18469,
    "object_ad": 228895,
    "company": 3,
    "office": 67,
    "project": null
  }
}
{
  "id": 1215,
  "city": "Mölndal",
  "county": "Västra Götalands län",
  "location": {
    "lat": 57.6506182,
    "lon": 11.9879459
  },
  "uri": "/projekt/1215",
  "title": "Koltrasten",
  "rent": null,
  "rooms": null,
  "area": null,
  "date_access": "2026-05-01",
  "references": {
    "company": 31,
    "office": 1270,
    "project": 1215
  }
}
{
  "id": 222788,
  "city": "Göteborg",
  "county": "Västra Götalands län",
  "location": {
    "lat": 57.6937807,
    "lon": 11.9864893
  },
  "uri": "/lagenhet/222788-3rum-göteborg-västra-götalands-län-lundgrensgatan-16",
  "title": "Lundgrensgatan 16",
  "rent": 11206,
  "rooms": 3.0,
  "area": 73.0,
  "date_access": null,
  "references": {
    "estate": 7883,
    "apartment": 270392,
    "object_ad": 222788,
    "company": 1087,
    "office": 1787,
    "project": null
  }
}
{
  "id": 225695,
  "city": "Göteborg",
  "county": "Västra Götalands län",
  "location": {
    "lat": 57.698917,
    "lon": 11.9671437
  },
  "uri": "/lagenhet/225695-2rum-göteborg-västra-götalands-län-karl-gustavsgatan-10-a",
  "title": "Karl Gustavsgatan 10 A",
  "rent": 9071,
  "rooms": 2.0,
  "area": 56.0,
  "date_access": "2026-02-01",
  "references": {
    "estate": 961,
    "apartment": 95999,
    "object_ad": 225695,
    "company": 151,
    "office": 182,
    "project": null
  }
}
{
  "id": 226143,
  "city": "Göteborg",
  "county": "Västra Götalands län",
  "location": {
    "lat": 57.6995526,
    "lon": 11.9790094
  },
  "uri": "/lagenhet/226143-5rum-göteborg-västra-götalands-län-engelbrektsgatan-34-c",
  "title": "Engelbrektsgatan 34 C",
  "rent": 22795,
  "rooms": 5.0,
  "area": 165.0,
  "date_access": "2026-03-01",
  "references": {
    "estate": 1418,
    "apartment": 106299,
    "object_ad": 226143,
    "company": 58,
    "office": 62,
    "project": null
  }
}
{
  "id": 223776,
  "city": "Göteborg",
  "county": "Västra Götalands län",
  "location": {
    "lat": 57.6903872,
    "lon": 11.9930279
  },
  "uri": "/lagenhet/223776-2rum-göteborg-västra-götalands-län-mölndalsvägen-11-c",
  "title": "Mölndalsvägen 11 C",
  "rent": 11256,
  "rooms": 2.0,
  "area": 65.0,
  "date_access": "2026-02-01",
  "references": {
    "estate": 1453,
    "apartment": 26943,
    "object_ad": 223776,
    "company": 64,
    "office": 328,
    "project": null
  }
}
{
  "id": 227746,
  "city": "Göteborg",
  "county": "Västra Götalands län",
  "location": {
    "lat": 57.6868804,
    "lon": 11.9904222
  },
  "uri": "/lagenhet/227746-1rum-göteborg-västra-götalands-län-utlandagatan-31",
  "title": "Utlandagatan 31",
  "rent": 5201,
  "rooms": 1.0,
  "area": 17.0,
  "date_access": "2026-04-01",
  "references": {
    "estate": 2545,
    "apartment": 77252,
    "object_ad": 227746,
    "company": 109,
    "office": 116,
    "project": null
  }
}
{
  "id": 226142,
  "city": "Göteborg",
  "county": "Västra Götalands län",
  "location": {
    "lat": 57.6895555,
    "lon": 11.9808728
  },
  "uri": "/lagenhet/226142-1.5rum-göteborg-västra-götalands-län-gibraltargatan-36",
  "title": "Gibraltargatan 36",
  "rent": 9722,
  "rooms": 1.5,
  "area": 55.0,
  "date_access": "2026-02-01",
  "references": {
    "estate": 5229,
    "apartment": 273313,
    "object_ad": 226142,
    "company": 151,
    "office": 182,
    "project": null
  }
}
{
  "id": 228252,
  "city": "Göteborg",
  "county": "Västra Götalands län",
  "location": {
    "lat": 57.7109856,
    "lon": 11.986555
  },
  "uri": "/lagenhet/228252-1rum-göteborg-västra-götalands-län-bangårdsgatan-17",
  "title": "Bangårdsgatan 17",
  "rent": 8066,
  "rooms": 1.0,
  "area": 34.0,
  "date_access": "2026-03-01",
  "references": {
    "estate": 759,
    "apartment": 4914,
    "object_ad": 228252,
    "company": 104,
    "office": 108,
    "project": null
  }
}
{
  "id": 228480,
  "city": "Göteborg",
  "county": "Västra Götalands län",
  "location": {
    "lat": 57.710766,
    "lon": 11.9860797
  },
  "uri": "/lagenhet/228480-2rum-göteborg-västra-götalands-län-bangårdsgatan-15",
  "title": "Bangårdsgatan 15",
  "rent": 10235,
  "rooms": 2.0,
  "area": 55.0,
  "date_access": "2026-03-01",
  "references": {
    "estate": 759,
    "apartment": 4610,
    "object_ad": 228480,
    "company": 104,
    "office": 108,
    "project": null
  }
}
{
  "id": 228255,
  "city": "Göteborg",
  "county": "Västra Götalands län",
  "location": {
    "lat": 57.7110147,
    "lon": 11.9866106
  },
  "uri": "/lagenhet/228255-1rum-göteborg-västra-götalands-län-bangårdsgatan-19",
  "title": "Bangårdsgatan 19",
  "rent": 7588,
  "rooms": 1.0,
  "area": 34.0,
  "date_access": "2026-03-01",
  "references": {
    "estate": 759,
    "apartment": 7472,
    "object_ad": 228255,
    "company": 104,
    "office": 108,
    "project": null
  }
}
{
  "id": 228249,
  "city": "Göteborg",
  "county": "Västra Götalands län",
  "location": {
    "lat": 57.7116669,
    "lon": 11.9877884
  },
  "uri": "/lagenhet/228249-2rum-göteborg-västra-götalands-län-bangårdsgatan-21",
  "title": "Bangårdsgatan 21",
  "rent": 10330,
  "rooms": 2.0,
  "area": 55.0,
  "date_access": "2026-03-01",
  "references": {
    "estate": 759,
    "apartment": 31931,
    "object_ad": 228249,
    "company": 104,
    "office": 108,
    "project": null
  }
}
{
  "id": 228250,
  "city": "Göteborg",
  "county": "Västra Götalands län",
  "location": {
    "lat": 57.7110147,
    "lon": 11.9866106
  },
  "uri": "/lagenhet/228250-2rum-göteborg-västra-götalands-län-bangårdsgatan-19",
  "title": "Bangårdsgatan 19",
  "rent": 10522,
  "rooms": 2.0,
  "area": 55.0,
  "date_access": "2026-03-01",
  "references": {
    "estate": 759,
    "apartment": 33566,
    "object_ad": 228250,
    "company": 104,
    "office": 108,
    "project": null
  }
}
{
  "id": 228245,
  "city": "Göteborg",
  "county": "Västra Götalands län",
  "location": {
    "lat": 57.7116669,
    "lon": 11.9877884
  },
  "uri": "/lagenhet/228245-1rum-göteborg-västra-götalands-län-bangårdsgatan-21",
  "title": "Bangårdsgatan 21",
  "rent": 7397,
  "rooms": 1.0,
  "area": 34.0,
  "date_access": "2026-03-01",
  "references": {
    "estate": 759,
    "apartment": 20817,
    "object_ad": 228245,
    "company": 104,
    "office": 108,
    "project": null
  }
}
{
  "id": 228257,
  "city": "Göteborg",
  "county": "Västra Götalands län",
  "location": {
    "lat": 57.7110147,
    "lon": 11.9866106
  },
  "uri": "/lagenhet/228257-1rum-göteborg-västra-götalands-län-bangårdsgatan-19",
  "title": "Bangårdsgatan 19",
  "rent": 7397,
  "rooms": 1.0,
  "area": 34.0,
  "date_access": "2026-03-01",
  "references": {
    "estate": 759,
    "apartment": 5857,
    "object_ad": 228257,
    "company": 104,
    "office": 108,
    "project": null
  }
}
{
  "id": 228248,
  "city": "Göteborg",
  "county": "Västra Götalands län",
  "location": {
    "lat": 57.7109856,
    "lon": 11.986555
  },
  "uri": "/lagenhet/228248-1rum-göteborg-västra-götalands-län-bangårdsgatan-17",
  "title": "Bangårdsgatan 17",
  "rent": 7780,
  "rooms": 1.0,
  "area": 34.0,
  "date_access": "2026-03-01",
  "references": {
    "estate": 759,
    "apartment": 20810,
    "object_ad": 228248,
    "company": 104,
    "office": 108,
    "project": null
  }
}
{
  "id": 228459,
  "city": "Göteborg",
  "county": "Västra Götalands län",
  "location": {
    "lat": 57.6861664,
    "lon": 12.0018665
  },
  "uri": "/lagenhet/228459-2rum-göteborg-västra-götalands-län-tändsticksgatan-2",
  "title": "Tändsticksgatan 2",
  "rent": 11883,
  "rooms": 2.0,
  "area": 63.0,
  "date_access": "2026-03-01",
  "references": {
    "estate": 4248,
    "apartment": 42321,
    "object_ad": 228459,
    "company": 104,
    "office": 108,
    "project": null
  }
}
{
  "id": 228461,
  "city": "Göteborg",
  "county": "Västra Götalands län",
  "location": {
    "lat": 57.6861664,
    "lon": 12.0018665
  },
  "uri": "/lagenhet/228461-2rum-göteborg-västra-götalands-län-tändsticksgatan-2",
  "title": "Tändsticksgatan 2",
  "rent": 12043,
  "rooms": 2.0,
  "area": 64.0,
  "date_access": "2026-03-01",
  "references": {
    "estate": 4248,
    "apartment": 42578,
    "object_ad": 228461,
    "company": 104,
    "office": 108,
    "project": null
  }
}
{
  "id": 228466,
  "city": "Göteborg",
  "county": "Västra Götalands län",
  "location": {
    "lat": 57.6861664,
    "lon": 12.0018665
  },
  "uri": "/lagenhet/228466-2rum-göteborg-västra-götalands-län-tändsticksgatan-2",
  "title": "Tändsticksgatan 2",
  "rent": 10462,
  "rooms": 2.0,
  "area": 54.0,
  "date_access": "2026-03-01",
  "references": {
    "estate": 4248,
    "apartment": 42650,
    "object_ad": 228466,
    "company": 104,
    "office": 108,
    "project": null
  }
}
{
  "id": 228470,
  "city": "Göteborg",
  "county": "Västra Götalands län",
  "location": {
    "lat": 57.6861664,
    "lon": 12.0018665
  },
  "uri": "/lagenhet/228470-2rum-göteborg-västra-götalands-län-tändsticksgatan-2",
  "title": "Tändsticksgatan 2",
  "rent": 12770,
  "rooms": 2.0,
  "area": 65.0,
  "date_access": "2026-03-01",
  "references": {
    "estate": 4248,
    "apartment": 42735,
    "object_ad": 228470,
    "company": 104,
    "office": 108,
    "project": null
  }
}
{
  "id": 228475,
  "city": "Göteborg",
  "county": "Västra Götalands län",
  "location": {
    "lat": 57.6892527,
    "lon": 11.993705
  },
  "uri": "/lagenhet/228475-2rum-göteborg-västra-götalands-län-norra-krokslättsgatan-6",
  "title": "Norra Krokslättsgatan 6",
  "rent": 10661,
  "rooms": 2.0,
  "area": 64.0,
  "date_access": "2026-03-01",
  "references": {
    "estate": 850,
    "apartment": 8537,
    "object_ad": 228475,
    "company": 104,
    "office": 108,
    "project": null
  }
}
{
  "id": 228473,
  "city": "Göteborg",
  "county": "Västra Götalands län",
  "location": {
    "lat": 57.6894034,
    "lon": 11.9935405
  },
  "uri": "/lagenhet/228473-3rum-göteborg-västra-götalands-län-norra-krokslättsgatan-4",
  "title": "Norra Krokslättsgatan 4",
  "rent": 12591,
  "rooms": 3.0,
  "area": 79.0,
  "date_access": "2026-03-01",
  "references": {
    "estate": 850,
    "apartment": 12302,
    "object_ad": 228473,
    "company": 104,
    "office": 108,
    "project": null
  }
}
{
  "id": 228726,
  "city": "Göteborg",
  "county": "Västra Götalands län",
  "location": {
    "lat": 57.6747282,
    "lon": 11.9318753
  },
  "uri": "/lagenhet/228726-1rum-göteborg-västra-götalands-län-skäpplandsgatan-3",
  "title": "Skäpplandsgatan 3",
  "rent": 7611,
  "rooms": 1.0,
  "area": 42.0,
  "date_access": "2026-04-01",
  "references": {
    "estate": 792,
    "apartment": 34913,
    "object_ad": 228726,
    "company": 103,
    "office": 107,
    "project": null
  }
}
{
  "id": 228715,
  "city": "Göteborg",
  "county": "Västra Götalands län",
  "location": {
    "lat": 57.6721032,
    "lon": 11.9358007
  },
  "uri": "/lagenhet/228715-1rum-göteborg-västra-götalands-län-marklandsgatan-29",
  "title": "Marklandsgatan 29",
  "rent": 5140,
  "rooms": 1.0,
  "area": 42.0,
  "date_access": "2026-04-01",
  "references": {
    "estate": 3252,
    "apartment": 79402,
    "object_ad": 228715,
    "company": 103,
    "office": 107,
    "project": null
  }
}
{
  "id": 183058,
  "city": "Göteborg",
  "county": "Västra Götalands län",
  "location": {
    "lat": 57.6887,
    "lon": 11.989
  },
  "uri": "/lagenhet/183058-1rum-göteborg-västra-götalands-län-gyllenkrooksgatan-22",
  "title": "Gyllenkrooksgatan 22",
  "rent": 5200,
  "rooms": 1.0,
  "area": 10.0,
  "date_access": "2026-06-01",
  "references": {
    "estate": 11623,
    "apartment": 247803,
    "object_ad": 183058,
    "company": 1830,
    "office": 2766,
    "project": null
  }
}
{
  "id": 228979,
  "city": "Göteborg",
  "county": "Västra Götalands län",
  "location": {
    "lat": 57.696596,
    "lon": 11.9969162
  },
  "uri": "/lagenhet/228979-1rum-göteborg-västra-götalands-län-kronhjortsgatan-10",
  "title": "Kronhjortsgatan 10",
  "rent": 4600,
  "rooms": 1.0,
  "area": 27.0,
  "date_access": "2026-02-01",
  "references": {
    "estate": 7517,
    "apartment": 274534,
    "object_ad": 228979,
    "company": 144,
    "office": 166,
    "project": null
  }
}
{
  "id": 228981,
  "city": "Göteborg",
  "county": "Västra Götalands län",
  "location": {
    "lat": 57.696596,
    "lon": 11.9969162
  },
  "uri": "/lagenhet/228981-1rum-göteborg-västra-götalands-län-kronhjortsgatan-10",
  "title": "Kronhjortsgatan 10",
  "rent": 4900,
  "rooms": 1.0,
  "area": 23.0,
  "date_access": "2026-01-15",
  "references": {
    "estate": 7517,
    "apartment": 273620,
    "object_ad": 228981,
    "company": 144,
    "office": 166,
    "project": null
  }
}
